,City,Country,Lat,Lng,Max Temp,Humidity,Cloudiness,Wind Speed,Current Description
0,Ribeira Grande,PT,38.52,-28.7,77.0,88,40,6.93,scattered clouds
1,Torbay,CA,47.67,-52.73,72.0,46,20,10.29,few clouds
2,Sabzevar,IR,36.21,57.68,76.35,42,0,7.2,clear sky
3,Nenagh,IE,52.86,-8.2,62.01,77,75,14.99,broken clouds
4,Belgrade,RS,44.8,20.47,80.6,61,66,11.41,broken clouds
5,Castro,BR,-24.79,-50.01,58.1,68,27,10.38,scattered clouds
6,Vaini,TO,-21.2,-175.2,73.4,94,20,5.82,few clouds
7,New Norfolk,AU,-42.78,147.06,39.0,86,34,1.01,scattered clouds
8,Ahipara,NZ,-35.17,173.17,55.09,79,51,18.95,light rain
9,Constitucion,CL,-35.33,-72.42,54.05,71,100,20.83,overcast clouds
10,Ushuaia,AR,-54.8,-68.3,35.6,74,20,12.75,few clouds
11,Yellowknife,CA,62.46,-114.35,57.99,66,40,8.05,scattered clouds
12,Longyearbyen,SJ,78.22,15.64,46.4,61,20,8.05,few clouds
13,Mataura,NZ,-46.19,168.86,43.0,92,41,4.0,scattered clouds
14,Lumut,MY,4.23,100.63,75.2,94,20,3.67,few clouds
15,Nouakchott,MR,18.09,-15.98,86.0,70,90,20.8,sand
16,Busselton,AU,-33.65,115.33,44.01,77,1,4.61,clear sky
17,Kodiak,US,57.79,-152.41,57.2,82,90,3.47,light rain
18,Tuktoyaktuk,CA,69.45,-133.04,57.2,76,40,11.41,scattered clouds
19,Salamiyah,SY,35.01,37.05,76.86,31,0,7.83,clear sky
20,Kapaa,US,22.08,-159.32,80.6,78,40,11.41,scattered clouds
21,Nome,US,64.5,-165.41,51.8,81,90,9.17,overcast clouds
22,Saint-Philippe,RE,-21.36,55.77,71.6,72,24,4.7,few clouds
23,Atuona,PF,-9.8,-139.03,78.13,78,20,16.8,light rain
24,Punta Arenas,CL,-53.15,-70.92,37.4,55,40,28.86,scattered clouds
25,Rikitea,PF,-23.12,-134.97,69.71,83,73,23.49,broken clouds
26,Hithadhoo,MV,-0.6,73.08,82.56,77,42,11.18,moderate rain
27,Matagami,CA,49.75,-77.63,66.2,52,1,6.33,clear sky
28,Barrow,US,71.29,-156.79,37.4,93,90,14.99,fog
29,Chihuahua,MX,28.5,-106.0,84.2,35,20,8.84,few clouds
30,Talnakh,RU,69.49,88.4,59.0,82,100,11.18,overcast clouds
31,Cape Town,ZA,-33.93,18.42,61.0,87,100,10.29,overcast clouds
32,Qaanaaq,GL,77.48,-69.36,37.65,83,100,2.15,overcast clouds
33,Ca Mau,VN,9.18,105.15,79.25,86,88,3.22,overcast clouds
34,Makakilo City,US,21.35,-158.09,80.6,78,1,3.36,clear sky
35,Xam Nua,LA,20.42,104.04,67.53,93,86,2.19,overcast clouds
36,Puerto Ayora,EC,-0.74,-90.35,75.2,60,40,14.99,scattered clouds
37,Souillac,MU,-20.52,57.52,71.6,73,20,17.22,few clouds
38,Male,MV,4.17,73.51,84.2,83,75,5.82,broken clouds
39,Pio Xii,BR,-3.83,-45.15,91.2,48,48,4.7,light rain
40,El Bagre,CO,7.59,-74.81,88.03,63,76,2.1,light rain
41,Naze,JP,28.37,129.48,84.2,89,75,9.17,light rain
42,Hashtrud,IR,37.48,47.05,58.15,72,62,6.96,light rain
43,Jamestown,US,42.1,-79.24,78.01,83,75,3.36,broken clouds
44,Ust-Nera,RU,64.57,143.2,36.88,74,100,6.04,overcast clouds
45,Komsomolskiy,UZ,40.43,71.72,78.8,36,0,9.17,clear sky
46,Bambous Virieux,MU,-20.34,57.76,72.0,73,20,17.22,few clouds
47,Port Lincoln,AU,-34.73,135.87,47.03,82,56,2.75,broken clouds
48,Zhigansk,RU,66.77,123.37,40.01,87,9,14.63,clear sky
49,Hofn,IS,64.25,-15.21,57.2,67,75,5.82,broken clouds
50,Hambantota,LK,6.12,81.12,80.08,83,20,12.19,few clouds
51,Dingzhou,CN,38.51,115.0,77.0,94,100,4.47,light rain
52,Iracoubo,GF,5.48,-53.2,85.24,68,14,11.25,light rain
53,Tuatapere,NZ,-46.13,167.68,43.0,92,58,4.0,broken clouds
54,Avarua,CK,-21.21,-159.78,69.8,83,3,4.7,clear sky
55,Gbadolite,CD,4.28,21.02,72.19,94,100,1.54,overcast clouds
56,Pacific Grove,US,36.62,-121.92,72.0,60,1,3.36,smoke
57,Severo-Kurilsk,RU,50.68,156.12,51.53,72,94,3.94,overcast clouds
58,Bredasdorp,ZA,-34.53,20.04,59.0,82,100,4.7,overcast clouds
59,Dahuk,IQ,36.87,42.99,79.39,27,11,3.13,few clouds
60,Taltal,CL,-25.4,-70.48,58.15,62,19,4.03,few clouds
61,Imeni Babushkina,RU,59.76,43.13,62.02,84,100,5.28,overcast clouds
62,Melipilla,CL,-33.7,-71.22,59.0,54,75,13.87,broken clouds
63,Upernavik,GL,72.79,-56.15,44.58,84,83,8.95,broken clouds
64,Narsaq,GL,60.92,-46.05,55.4,62,0,9.17,clear sky
65,Maroantsetra,MG,-15.43,49.73,69.57,82,81,7.07,light rain
66,George Town,MY,5.41,100.34,82.4,88,20,3.36,few clouds
67,The Pas,CA,53.83,-101.25,69.8,56,1,13.78,clear sky
68,Sawtell,AU,-30.38,153.1,42.01,60,0,4.7,clear sky
69,Albany,US,42.6,-73.97,88.0,64,7,2.75,clear sky
70,Shache,CN,38.42,77.24,72.19,22,0,3.62,clear sky
71,Vanavara,RU,60.34,102.28,54.9,85,100,2.86,overcast clouds
72,Carutapera,BR,-1.2,-46.02,80.58,85,55,7.7,moderate rain
73,Mahon,ES,39.89,4.27,78.8,61,20,10.29,few clouds
74,Petropavlovsk-Kamchatskiy,RU,53.05,158.65,50.0,100,75,4.47,light intensity shower rain
75,Thompson,CA,55.74,-97.86,48.2,100,90,6.93,light rain
76,Georgetown,MY,5.41,100.34,82.4,88,20,3.36,few clouds
77,Iqaluit,CA,63.75,-68.51,48.2,76,40,3.36,scattered clouds
78,Kabalo,CD,-6.05,26.92,81.86,36,82,2.59,broken clouds
79,Yuxia,CN,34.06,108.63,72.0,88,20,8.95,few clouds
80,Hobart,AU,-42.88,147.33,41.0,80,40,6.93,scattered clouds
81,Port Alfred,ZA,-33.59,26.89,58.82,81,1,8.63,clear sky
82,Les Cayes,HT,18.2,-73.75,79.18,83,100,23.31,moderate rain
83,Victoria,HK,22.29,114.16,84.0,79,96,8.01,overcast clouds
84,Inuvik,CA,68.35,-133.72,62.6,63,75,5.82,broken clouds
85,Fairbanks,US,64.84,-147.72,57.2,93,75,3.36,broken clouds
86,Alta Floresta,BR,-9.88,-56.09,95.0,26,0,3.36,clear sky
87,Norman Wells,CA,65.28,-126.83,60.8,67,20,11.41,few clouds
88,Tiksi,RU,71.69,128.87,37.63,79,86,10.22,overcast clouds
89,Severodvinsk,RU,64.56,39.83,60.8,93,90,6.71,light intensity shower rain
90,Loandjili,CG,-4.76,11.86,77.0,83,90,6.93,overcast clouds
91,Wewak,PG,-3.55,143.63,77.45,84,98,0.81,moderate rain
92,Pirai Do Sul,BR,-24.53,-49.95,68.0,57,12,4.0,few clouds
93,Ulaangom,MN,49.98,92.07,56.46,65,91,3.2,overcast clouds
94,Virginia Beach,US,36.85,-75.98,89.01,58,75,9.17,broken clouds
95,La Ronge,CA,55.1,-105.28,64.4,59,75,21.92,broken clouds
96,Lata,PT,40.16,-8.33,82.99,47,27,7.63,scattered clouds
97,Warangal,IN,18.0,79.58,79.03,83,100,9.42,moderate rain
98,Clinton,US,42.59,-82.92,88.0,48,40,9.17,scattered clouds
99,Saint-Honore,CA,48.53,-71.08,73.4,49,40,12.75,scattered clouds
100,Ambon,ID,-3.7,128.18,75.0,17,95,11.86,overcast clouds
101,Lebu,CL,-37.62,-73.65,50.76,91,100,20.85,light rain
102,Clyde River,CA,70.47,-68.59,42.76,89,100,8.12,overcast clouds
103,Luganville,VU,-15.53,167.17,77.9,87,70,5.75,broken clouds
104,Faanui,PF,-16.48,-151.75,76.46,78,6,19.75,clear sky
105,Bluff,NZ,-46.6,168.33,43.0,92,40,4.0,scattered clouds
106,Saskylakh,RU,71.92,114.08,40.93,83,0,8.16,clear sky
107,Arraial Do Cabo,BR,-22.97,-42.03,73.4,64,75,4.7,broken clouds
108,Hami,CN,42.8,93.45,82.18,20,73,7.67,broken clouds
109,Yaransk,RU,57.3,47.89,59.92,82,44,5.84,scattered clouds
110,Jasper,US,37.2,-94.35,87.8,48,1,11.41,clear sky
111,Port Elizabeth,ZA,-33.92,25.57,59.0,82,20,16.11,few clouds
112,Port Hedland,AU,-20.32,118.57,66.2,55,0,8.05,clear sky
113,Ancud,CL,-41.87,-73.82,51.01,93,90,14.99,overcast clouds
114,Bengkulu,ID,-3.8,102.27,76.53,88,96,4.74,overcast clouds
115,Lokosovo,RU,61.13,74.82,50.07,96,98,2.51,overcast clouds
116,East London,ZA,-33.02,27.91,63.68,71,32,5.48,scattered clouds
117,Itarema,BR,-2.92,-39.92,82.71,63,2,21.03,clear sky
118,Umm Lajj,SA,25.02,37.27,83.89,60,0,4.05,clear sky
119,Kruisfontein,ZA,-34.0,24.73,57.99,81,27,3.0,scattered clouds
120,Dikson,RU,73.51,80.55,46.51,78,0,9.6,clear sky
121,Khatanga,RU,71.97,102.5,54.81,67,88,9.71,overcast clouds
122,Butaritari,KI,3.07,172.79,82.96,67,71,9.64,broken clouds
123,Gulbarga,IN,17.33,76.83,76.5,83,100,12.39,overcast clouds
124,Alofi,NU,-19.06,-169.92,73.4,88,77,8.05,broken clouds
125,Beeskow,DE,52.17,14.25,72.0,72,35,1.99,scattered clouds
126,Pochutla,MX,15.74,-96.47,84.99,78,90,6.6,overcast clouds
127,Santo Domingo,DO,18.5,-69.99,84.2,100,90,8.7,light rain
128,Mwinilunga,ZM,-11.74,24.43,67.87,31,14,5.1,few clouds
129,Deputatskiy,RU,69.3,139.9,30.63,99,100,3.0,overcast clouds
130,Vostok,RU,46.49,135.88,53.15,89,100,3.31,overcast clouds
131,Turka,UA,49.15,23.03,63.0,97,100,1.01,light rain
132,Kloulklubed,PW,7.04,134.26,80.6,78,75,3.36,broken clouds
133,Yulara,AU,-25.24,130.99,59.0,37,0,6.93,clear sky
134,Hobyo,SO,5.35,48.53,76.12,78,44,24.81,scattered clouds
135,Sorland,NO,67.67,12.69,51.8,81,75,19.46,shower rain
136,Waingapu,ID,-9.66,120.26,73.76,83,66,5.73,broken clouds
137,Mgandu,TZ,-5.95,34.13,66.09,41,26,6.49,scattered clouds
138,College,US,64.86,-147.8,57.2,87,75,1.52,broken clouds
139,Hermanus,ZA,-34.42,19.23,57.0,93,100,1.01,overcast clouds
140,Kathmandu,NP,27.72,85.32,71.6,94,75,4.7,light rain
141,Thai Nguyen,VN,21.59,105.84,84.2,79,17,6.93,few clouds
142,Clonakilty,IE,51.62,-8.87,63.0,72,75,16.11,broken clouds
143,Atambua,ID,-9.11,124.89,66.9,71,51,5.35,broken clouds
144,Morondava,MG,-20.28,44.28,73.53,86,0,7.56,clear sky
145,San Cristobal,VE,7.77,-72.22,84.2,62,40,3.36,scattered clouds
146,Ballina,AU,-28.87,153.57,51.01,60,0,6.93,clear sky
147,Sept-Iles,CA,50.2,-66.38,62.6,55,75,8.05,broken clouds
148,Yangjiang,CN,21.85,111.97,79.23,87,53,4.9,broken clouds
149,Aswan,EG,24.09,32.91,92.55,19,0,9.75,clear sky
150,Tasiilaq,GL,65.61,-37.64,48.2,76,0,10.29,clear sky
151,Port Blair,IN,11.67,92.75,81.61,81,99,8.63,overcast clouds
152,Tura,IN,25.52,90.22,74.43,95,61,4.12,moderate rain
153,Ketchikan,US,55.34,-131.65,57.2,100,90,9.17,moderate rain
154,Ranong,TH,9.97,98.63,79.39,78,64,5.17,broken clouds
155,Chegdomyn,RU,51.12,133.02,55.9,92,100,3.15,overcast clouds
156,Nikolskoye,RU,59.7,30.79,64.4,77,90,6.71,overcast clouds
157,Gopalpur,IN,19.27,84.92,82.42,84,100,11.3,light rain
158,Pangnirtung,CA,66.15,-65.71,42.8,93,75,10.29,broken clouds
159,Hilo,US,19.73,-155.09,78.8,74,75,3.36,broken clouds
160,Luau,AO,-10.71,22.22,71.8,31,22,1.23,few clouds
161,Mattru,SL,7.62,-11.83,76.32,92,99,5.14,light rain
162,Xapuri,BR,-10.65,-68.5,91.67,28,0,1.23,clear sky
163,Shimoda,JP,34.67,138.95,70.0,93,51,8.12,broken clouds
164,Ozernovskiy,RU,51.5,156.52,50.47,82,82,6.87,broken clouds
165,Kismayo,SO,-0.36,42.55,77.0,77,46,14.43,scattered clouds
166,Kintinku,TZ,-5.88,35.23,71.6,53,20,16.11,few clouds
167,Inhambane,MZ,-23.86,35.38,68.0,77,0,2.24,clear sky
168,Mildura,AU,-34.2,142.15,39.0,100,1,4.7,clear sky
169,Ponta Do Sol,PT,32.67,-17.1,80.6,42,20,18.34,few clouds
170,Chuy,UY,-33.7,-53.46,62.58,58,0,10.47,clear sky
171,The Valley,AI,18.22,-63.06,87.8,74,40,17.22,scattered clouds
172,Palafrugell,ES,41.92,3.16,77.0,51,31,6.93,scattered clouds
173,Zhangjiakou,CN,40.81,114.88,62.31,87,100,3.65,light rain
174,Luderitz,NA,-26.65,15.16,59.85,70,0,14.54,clear sky
175,Evensk,RU,61.95,159.23,41.67,67,96,8.61,overcast clouds
176,Sao Filipe,CV,14.9,-24.5,79.9,77,97,6.17,overcast clouds
177,Carnarvon,AU,-24.87,113.63,64.4,88,54,17.22,broken clouds
178,Madang,PG,-5.22,145.8,77.23,89,100,3.76,moderate rain
179,Lagoa,PT,39.05,-27.98,73.81,88,37,15.46,scattered clouds
180,North Branch,US,45.51,-92.98,82.99,81,0,3.0,clear sky
181,Ust-Kuyga,RU,70.02,135.6,30.56,96,69,6.82,broken clouds
182,Pangody,RU,65.85,74.49,55.29,85,60,9.75,broken clouds
183,Havre-Saint-Pierre,CA,50.23,-63.6,66.2,55,20,11.41,few clouds
184,Coihaique,CL,-45.58,-72.07,39.2,86,90,3.36,light rain
185,Kabare,CD,-2.47,28.82,64.72,68,71,1.68,broken clouds
186,Bundaberg,AU,-24.85,152.35,51.8,40,25,8.05,scattered clouds
187,Hualmay,PE,-11.1,-77.61,66.97,63,15,8.19,few clouds
188,Lompoc,US,34.64,-120.46,73.99,73,1,5.82,clear sky
189,Beringovskiy,RU,63.05,179.32,50.63,87,3,5.86,clear sky
190,Taruma,BR,-22.75,-50.58,70.54,53,0,10.09,clear sky
191,Ostrovnoy,RU,68.05,39.51,59.16,87,100,17.9,overcast clouds
192,Padang,ID,-0.95,100.35,79.43,70,96,3.94,overcast clouds
193,Pyaozerskiy,RU,65.83,31.17,58.89,85,46,9.75,scattered clouds
194,Ocean City,US,39.28,-74.57,87.01,94,90,5.82,heavy intensity rain
195,Esperance,AU,-33.87,121.9,50.0,100,75,3.36,broken clouds
196,Lebanon,US,36.21,-86.29,80.6,65,75,3.58,broken clouds
197,Ryki,PL,51.63,21.93,73.99,41,92,5.06,light rain
198,Bilma,NE,18.69,12.92,95.4,33,57,12.33,light rain
199,Tucumcari,US,35.17,-103.72,95.68,18,0,10.18,clear sky
200,Carndonagh,IE,55.25,-7.27,57.2,87,75,6.93,broken clouds
201,Fukue,JP,32.69,128.84,81.93,70,0,2.42,clear sky
202,Dingle,PH,11.0,122.67,76.68,87,94,0.76,overcast clouds
203,Labytnangi,RU,66.66,66.42,52.39,83,66,6.69,broken clouds
204,Cidreira,BR,-30.18,-50.21,62.1,69,0,15.43,clear sky
205,Lazaro Cardenas,MX,17.96,-102.2,85.53,74,74,4.63,broken clouds
206,Pevek,RU,69.7,170.31,37.51,96,100,3.8,overcast clouds
207,Jalu,LY,29.03,21.55,87.39,29,0,18.07,clear sky
208,Honolulu,US,21.31,-157.86,80.6,69,20,9.17,few clouds
209,Westport,US,41.14,-73.36,84.99,69,1,6.93,clear sky
210,Richards Bay,ZA,-28.78,32.04,66.54,81,0,8.5,clear sky
211,Port Hueneme,US,34.15,-119.2,82.99,78,75,4.7,broken clouds
212,Grand-Santi,GF,4.25,-54.38,92.84,43,35,1.92,scattered clouds
213,Omutninsk,RU,58.67,52.19,56.37,94,13,3.36,light rain
214,Hay River,CA,60.82,-115.8,59.0,67,75,10.29,broken clouds
215,Fare,PF,-16.7,-151.02,77.05,77,0,20.49,light rain
216,Shima,CN,24.45,117.81,84.2,83,100,4.47,overcast clouds
217,Jinchang,CN,38.5,102.17,70.99,34,3,7.99,clear sky
218,Xai-Xai,MZ,-25.05,33.64,66.34,68,0,11.07,clear sky
219,Totness,SR,5.88,-56.32,87.87,60,26,9.35,scattered clouds
220,Avera,US,33.19,-82.53,82.99,74,90,3.36,light rain
221,Dandong,CN,40.13,124.39,66.6,91,100,3.87,overcast clouds
222,Itaueira,BR,-7.6,-43.03,97.72,19,0,8.01,clear sky
223,Mahajanga,MG,-15.72,46.32,75.2,73,20,2.24,few clouds
224,Rockland,US,41.17,-74.05,88.0,68,82,6.6,broken clouds
225,Vredendal,ZA,-31.67,18.5,58.15,77,31,11.12,scattered clouds
226,Beloha,MG,-25.17,45.05,67.32,82,1,6.87,clear sky
227,Kiama,AU,-34.68,150.87,51.01,60,0,11.01,clear sky
228,Kahului,US,20.89,-156.47,80.6,61,20,10.29,few clouds
229,Mercedes,AR,-34.65,-59.43,70.0,34,0,8.01,clear sky
230,Saint-Augustin,CA,51.23,-58.65,61.72,76,90,10.29,light rain
231,Dawlatabad,AF,36.41,64.91,84.11,13,0,4.61,clear sky
232,Srednekolymsk,RU,67.45,153.68,34.36,89,98,7.52,overcast clouds
233,Camana,PE,-16.62,-72.71,63.48,66,22,6.22,few clouds
234,Aksu,CN,41.12,80.26,81.32,23,0,7.23,clear sky
235,Katsuura,JP,35.13,140.3,78.8,88,40,5.82,scattered clouds
236,Itapaci,BR,-14.95,-49.55,93.9,22,15,1.32,few clouds
237,Kavieng,PG,-2.57,150.8,77.72,89,100,9.93,light rain
238,Verkhnyaya Inta,RU,65.98,60.31,44.91,80,0,4.07,clear sky
239,Merauke,ID,-8.47,140.33,73.53,85,4,14.27,clear sky
240,Cabo San Lucas,MX,22.89,-109.91,89.6,55,40,6.93,scattered clouds
241,Bathsheba,BB,13.22,-59.52,86.0,70,40,6.93,shower rain
242,Fortuna,US,40.6,-124.16,59.0,93,75,5.82,broken clouds
243,Colares,PT,38.8,-9.45,79.0,60,0,27.51,clear sky
244,Vardo,NO,70.37,31.11,57.2,87,92,16.11,overcast clouds
245,Riverton,US,40.52,-111.94,87.01,27,1,16.11,clear sky
246,Touros,BR,-5.2,-35.46,82.4,61,40,16.11,scattered clouds
247,Kudowa-Zdroj,PL,50.44,16.24,66.99,65,26,0.98,scattered clouds
248,Grinnell,US,41.74,-92.72,91.4,49,1,6.93,clear sky
249,Kenai,US,60.55,-151.26,57.99,82,75,4.7,broken clouds
250,Grindavik,IS,63.84,-22.43,55.4,58,79,8.05,broken clouds
251,Codrington,AU,-38.27,141.97,45.36,83,71,10.29,light rain
252,Numata,JP,36.63,139.05,73.99,89,84,1.99,broken clouds
253,Maltahohe,NA,-24.83,16.98,59.77,28,0,6.22,clear sky
254,Seoul,KR,37.57,126.98,75.2,83,90,0.38,overcast clouds
255,Sorong,ID,-0.88,131.25,76.8,85,99,5.12,light rain
256,Kavaratti,IN,10.57,72.64,82.31,79,51,13.35,light rain
257,Along,IN,28.17,94.77,73.65,89,93,1.14,light rain
258,Miyako,JP,39.64,141.95,71.1,89,93,3.44,overcast clouds
259,Romitan,UZ,39.93,64.38,86.0,45,90,4.7,thunderstorm with light rain
260,Praia Da Vitoria,PT,38.73,-27.07,82.4,65,20,3.89,few clouds
261,Zhezkazgan,KZ,47.8,67.71,64.4,68,90,11.18,light intensity shower rain
262,Colac,AU,-38.33,143.58,41.0,99,31,4.41,scattered clouds
263,Ovsyanka,RU,55.96,92.55,55.4,93,40,4.47,light intensity shower rain
264,Praia,CV,14.92,-23.51,84.2,74,75,11.41,broken clouds
265,Vila Velha,BR,-20.33,-40.29,73.4,60,75,16.11,broken clouds
266,North Bend,US,43.41,-124.22,68.0,87,20,10.47,few clouds
267,Palmer,US,42.16,-72.33,91.0,43,20,11.41,few clouds
268,Farmington,US,36.73,-108.22,87.01,21,1,6.93,clear sky
269,Bandundu,CD,-3.32,17.37,80.87,66,98,2.08,light rain
270,Hovd,MN,48.01,91.64,61.32,41,44,8.84,scattered clouds
271,Tilichiki,RU,60.47,166.1,43.27,89,95,7.14,overcast clouds
272,Wanning,CN,18.8,110.4,80.55,85,100,8.12,overcast clouds
273,Kalas,IN,18.17,74.8,74.84,82,100,6.33,overcast clouds
274,Katangli,RU,51.71,143.23,48.31,99,50,2.48,scattered clouds
275,Moussoro,TD,13.64,16.49,83.21,63,99,4.54,overcast clouds
276,Yanam,IN,16.73,82.22,77.23,94,100,2.91,light rain
277,Krasnyy Chikoy,RU,50.36,108.75,54.75,88,100,2.86,overcast clouds
278,Chokwe,MZ,-24.53,32.98,71.42,31,0,7.18,clear sky
279,Daru,PG,-9.08,143.21,75.83,76,68,13.58,broken clouds
280,La Ciotat,FR,43.17,5.6,82.99,34,0,24.79,clear sky
281,Saint-Joseph,RE,-21.37,55.62,68.0,72,12,4.7,few clouds
282,Fort Nelson,CA,58.81,-122.7,55.4,87,90,3.36,mist
283,Bethel,US,41.37,-73.41,87.01,69,95,1.99,overcast clouds
284,Babushkin,RU,51.71,105.86,54.27,88,98,16.49,moderate rain
285,Namatanai,PG,-3.67,152.43,77.38,87,99,3.36,moderate rain
286,Broken Hill,AU,-31.95,141.43,41.0,74,0,8.05,clear sky
287,Sioux Falls,US,43.55,-96.7,91.99,43,1,2.19,clear sky
288,Leningradskiy,RU,69.38,178.42,43.63,89,100,10.98,overcast clouds
289,Imeni Poliny Osipenko,RU,52.42,136.49,53.74,76,100,3.33,overcast clouds
290,Lexington,US,37.99,-84.48,79.0,73,75,6.93,broken clouds
291,Maniitsoq,GL,65.42,-52.9,46.13,86,46,5.75,scattered clouds
292,Atar,MR,20.52,-13.05,108.36,13,32,14.27,scattered clouds
293,Jishou,CN,28.32,109.72,76.23,84,1,1.57,clear sky
294,Zomin,UZ,39.96,68.4,79.59,19,6,3.58,clear sky
295,Marawi,PH,8.0,124.29,77.0,90,45,5.99,scattered clouds
296,Cherskiy,RU,68.75,161.3,38.25,94,100,13.53,overcast clouds
297,Novyy Urengoy,RU,66.08,76.63,56.05,86,76,6.98,light rain
298,Nagato,JP,34.38,131.2,80.6,83,20,4.7,few clouds
299,Port Macquarie,AU,-31.43,152.92,48.99,56,0,11.99,clear sky
300,Sibolga,ID,1.74,98.78,76.95,79,100,3.06,overcast clouds
301,Kasongo-Lunda,CD,-6.47,16.82,72.5,83,95,2.46,heavy intensity rain
302,Verkhnevilyuysk,RU,63.45,120.32,39.09,81,0,2.24,clear sky
303,Ambatondrazaka,MG,-17.83,48.42,55.08,92,73,4.09,broken clouds
304,Contamana,PE,-7.33,-75.02,91.81,34,0,1.9,clear sky
305,Sokolo,ML,14.73,-6.12,89.94,46,75,3.83,broken clouds
306,Trelew,AR,-43.25,-65.31,68.72,23,73,4.72,broken clouds
307,Acapulco,MX,16.86,-99.89,84.2,74,75,4.7,broken clouds
308,Chokurdakh,RU,70.63,147.92,32.47,96,96,9.06,overcast clouds
309,Benguela,AO,-12.58,13.41,71.6,83,75,2.42,broken clouds
310,Kikwit,CD,-5.04,18.82,78.78,74,66,3.4,moderate rain
311,Matamoros,MX,25.53,-103.25,86.0,33,5,12.75,clear sky
312,Padre Bernardo,BR,-15.35,-48.5,93.02,23,47,2.59,scattered clouds
313,Moron,AR,-34.65,-58.62,66.2,39,0,12.75,clear sky
314,Airai,TL,-8.93,125.41,57.07,36,65,4.07,broken clouds
315,Mar Del Plata,AR,-38.0,-57.56,66.2,39,0,14.99,clear sky
316,Praya,CV,14.92,-23.51,84.2,74,75,11.41,broken clouds
317,Marsh Harbour,BS,26.54,-77.06,86.34,76,41,21.23,scattered clouds
318,Sarahan,IN,31.52,77.8,63.54,76,54,1.45,broken clouds
319,Wisconsin Rapids,US,44.38,-89.82,84.99,65,1,4.7,clear sky
320,Manutuke,NZ,-38.68,177.92,55.99,65,51,5.99,broken clouds
321,Namibe,AO,-15.2,12.15,66.74,87,40,4.88,scattered clouds
322,Mezhdurechensk,RU,53.69,88.06,51.44,92,72,3.38,light rain
323,Santiago,CL,-33.46,-70.65,59.0,62,75,5.39,broken clouds
324,Abnub,EG,27.27,31.15,89.6,29,0,9.17,clear sky
325,Helong,CN,42.54,129.0,62.47,87,100,2.17,overcast clouds
326,Rawlins,US,41.79,-107.24,82.4,14,1,4.7,clear sky
327,Havelock,US,34.88,-76.9,86.0,62,40,6.93,scattered clouds
328,Juazeirinho,BR,-6.82,-38.05,96.91,17,14,5.06,few clouds
329,Luba,GQ,3.46,8.55,75.92,85,100,6.58,light rain
330,Belaya Gora,RU,68.53,146.42,34.07,93,99,5.97,overcast clouds
331,Conde,BR,-7.26,-34.91,82.4,61,20,17.22,few clouds
332,Takoradi,GH,4.88,-1.76,75.97,83,44,10.83,scattered clouds
333,Rio Grande,BR,-32.03,-52.1,68.0,60,0,18.34,clear sky
334,Gerash,IR,27.67,54.14,95.0,44,97,6.93,overcast clouds
335,Ust-Uda,RU,54.17,103.03,53.01,91,99,2.59,overcast clouds
336,Del Rio,US,29.36,-100.9,87.8,58,1,9.17,clear sky
337,Okhotsk,RU,59.38,143.3,44.31,71,16,1.77,few clouds
338,Norwich,GB,52.63,1.3,68.0,64,40,16.11,scattered clouds
339,Borogontsy,RU,62.67,131.17,40.69,68,84,1.68,broken clouds
340,Bowen,AU,-20.02,148.23,55.99,93,31,2.24,scattered clouds
341,Zhucheng,CN,35.99,119.4,75.7,95,46,9.71,scattered clouds
342,Almoloya,MX,19.7,-98.4,69.8,52,40,4.7,scattered clouds
343,Kaitangata,NZ,-46.28,169.85,53.01,89,97,15.01,overcast clouds
344,Kholodnyy,RU,62.72,147.95,25.81,95,11,2.48,few clouds
345,Garden City,US,42.33,-83.33,87.01,45,20,9.17,few clouds
346,Djambala,CG,-2.54,14.75,71.89,83,99,5.46,light rain
347,Mareeba,AU,-17.0,145.43,55.4,87,64,2.06,broken clouds
348,Kudahuvadhoo,MV,2.67,72.89,84.54,65,92,3.38,overcast clouds
349,Sosnogorsk,RU,63.6,53.88,55.96,84,13,3.89,few clouds
350,Saint Anthony,US,45.02,-93.22,88.0,62,40,5.79,scattered clouds
351,Santa Rosa,PH,14.31,121.11,84.2,79,100,3.36,overcast clouds
352,Saldanha,ZA,-33.01,17.94,62.6,67,91,9.17,overcast clouds
353,Sitka,US,57.05,-135.33,55.4,93,90,3.36,light rain
354,Hamilton,US,39.18,-84.53,84.99,69,1,4.7,clear sky
355,Angatuba,BR,-23.49,-48.41,65.28,58,34,12.8,scattered clouds
356,Meulaboh,ID,4.14,96.13,77.7,82,92,2.75,overcast clouds
357,Nelson Bay,AU,-32.72,152.15,51.01,66,1,18.34,clear sky
358,Partenit,UA,44.58,34.34,70.38,58,15,5.01,few clouds
359,Bulancak,TR,40.94,38.23,71.6,94,20,2.24,few clouds
360,Akyab,MM,20.15,92.9,80.53,87,100,12.12,moderate rain
361,Mecca,SA,21.43,39.83,93.6,24,20,4.92,few clouds
362,Kapoeta,SS,4.77,33.59,81.86,46,97,5.53,overcast clouds
363,Phangnga,TH,8.45,98.53,77.0,94,20,1.12,few clouds
364,Pierre,US,44.37,-100.35,87.8,48,1,8.05,clear sky
365,Chumikan,RU,54.72,135.31,50.43,68,2,0.94,clear sky
366,Darab,IR,28.75,54.54,85.37,21,90,5.82,overcast clouds
367,Qasigiannguit,GL,68.82,-51.19,46.4,52,1,3.36,clear sky
368,Porto Velho,BR,-8.76,-63.9,84.2,35,0,4.7,clear sky
369,Christchurch,NZ,-43.53,172.63,52.0,93,100,6.93,light rain
370,Los Chiles,CR,11.03,-84.72,87.4,62,33,6.15,scattered clouds
371,Hurghada,EG,27.26,33.81,93.2,34,0,5.1,clear sky
372,Glendive,US,47.11,-104.71,73.99,38,1,13.87,clear sky
373,Nanortalik,GL,60.14,-45.24,47.46,78,3,3.36,clear sky
374,Akdepe,TM,42.06,59.38,84.2,35,0,18.34,clear sky
375,Karpathos,GR,35.51,27.21,78.8,74,0,18.34,clear sky
376,Kyra,RU,49.58,111.98,52.88,82,99,3.62,overcast clouds
377,Great Yarmouth,GB,52.61,1.73,71.01,62,70,1.01,moderate rain
378,Santa Lucia,ES,27.91,-15.54,86.0,42,20,28.86,few clouds
379,Sorocaba,BR,-23.5,-47.46,69.01,43,0,7.0,clear sky
380,Yarada,IN,17.65,83.27,82.4,94,75,9.17,mist
381,Mahebourg,MU,-20.41,57.7,71.6,73,20,17.22,few clouds
382,Alyangula,AU,-13.85,136.42,53.6,93,2,16.62,clear sky
383,Davila,PH,18.47,120.58,81.54,77,99,16.15,overcast clouds
384,Karnal,IN,29.68,76.98,79.05,86,8,8.21,clear sky
385,Comodoro Rivadavia,AR,-45.87,-67.5,60.8,41,84,11.41,broken clouds
386,Viedma,AR,-40.81,-63.0,68.0,27,30,11.01,scattered clouds
387,Kamaishi,JP,39.27,141.88,72.14,79,98,3.51,overcast clouds
388,Banjar,ID,-8.19,114.97,78.8,100,20,8.05,few clouds
389,Mount Gambier,AU,-37.83,140.77,39.2,93,90,8.05,overcast clouds
390,Doha,QA,25.29,51.53,95.0,79,9,6.93,clear sky
391,Roma,US,43.21,-75.46,86.0,54,1,6.73,clear sky
392,Maningrida,AU,-12.07,134.27,61.27,76,0,9.66,clear sky
393,Tanda,IN,26.55,82.65,82.49,76,0,1.12,clear sky
394,Palana,RU,59.12,159.97,44.28,90,93,4.68,overcast clouds
395,Provideniya,RU,64.38,-173.3,49.86,91,98,5.01,light rain
396,Caravelas,BR,-17.71,-39.25,68.09,86,100,12.3,light rain
397,Tanabe,JP,33.73,135.37,81.0,85,76,1.83,light rain
398,Belyy Yar,RU,53.6,91.39,60.8,67,97,11.18,overcast clouds
399,Xingyi,CN,24.19,102.82,60.73,96,16,2.66,few clouds
400,Tezu,IN,27.92,96.17,76.06,85,58,3.27,light rain
401,Saint George,US,37.1,-113.58,93.99,31,1,3.36,clear sky
402,Yerofey Pavlovich,RU,53.97,121.97,51.12,87,100,5.73,light rain
403,Ossora,RU,59.24,163.07,43.77,75,81,5.3,broken clouds
404,Nagua,DO,19.38,-69.85,78.8,94,90,10.85,overcast clouds
405,Ariquemes,BR,-9.91,-63.04,98.92,19,0,3.27,clear sky
406,Reforma,MX,18.1,-91.02,86.47,76,90,5.17,moderate rain
407,Baruun-Urt,MN,46.68,113.28,55.92,85,41,2.15,scattered clouds
408,Soyo,AO,-6.13,12.37,74.21,86,78,6.89,broken clouds
409,Hasaki,JP,35.73,140.83,75.2,94,40,4.7,scattered clouds
410,Shingu,JP,33.73,135.98,74.86,90,99,3.29,overcast clouds
411,Alice Springs,AU,-23.7,133.88,50.0,39,0,6.64,clear sky
412,Rochegda,RU,62.8,43.25,59.65,92,100,5.21,light rain
413,Basco,PH,20.45,121.97,84.4,78,56,24.74,broken clouds
414,Elko,US,41.0,-115.5,82.0,18,1,2.15,haze
415,Kalawit,PH,8.07,122.52,77.52,81,63,3.27,broken clouds
416,Angoram,PG,-4.06,144.07,73.99,97,99,1.57,light rain
417,Andilamena,MG,-17.02,48.58,55.49,91,69,7.74,broken clouds
418,Luanda,AO,-8.84,13.23,73.4,78,75,6.93,broken clouds
419,Banepa,NP,27.63,85.52,71.6,94,75,4.7,light rain
420,Guerrero Negro,MX,27.98,-114.06,83.03,50,74,16.33,broken clouds
421,Plettenberg Bay,ZA,-34.05,23.37,57.11,80,41,6.17,scattered clouds
422,Pinotepa Nacional,MX,16.32,-98.02,88.68,57,4,6.06,clear sky
423,Poum,NC,-20.23,164.02,71.87,82,84,14.43,broken clouds
424,Queimadas,BR,-10.98,-39.63,85.71,41,52,13.62,broken clouds
425,Tecoanapa,MX,16.52,-98.75,87.31,63,51,7.47,broken clouds
426,San Patricio,MX,19.22,-104.7,86.0,74,75,6.93,broken clouds
427,Coahuayana,MX,18.73,-103.68,78.8,83,75,4.61,haze
428,Nuuk,GL,64.18,-51.72,41.0,93,99,3.36,overcast clouds
429,La Sarre,CA,48.8,-79.2,72.93,57,42,3.47,scattered clouds
430,Midyat,TR,37.42,41.34,75.2,47,20,4.7,few clouds
431,Marzuq,YE,14.4,46.47,85.41,39,76,7.65,broken clouds
432,Kitakata,JP,37.65,139.87,73.0,68,95,1.97,overcast clouds
433,Jinxiang,CN,22.86,115.7,81.93,81,50,2.73,scattered clouds
434,Menomonie,US,44.88,-91.92,82.99,65,1,5.82,clear sky
435,Kerema,PG,-7.96,145.78,75.47,81,99,12.06,overcast clouds
436,Orapa,BW,-21.28,25.37,65.79,36,0,5.77,clear sky
437,Moose Factory,CA,51.26,-80.61,57.2,67,1,4.7,clear sky
438,Brandon,US,27.94,-82.29,93.0,59,75,6.93,broken clouds
439,Altenholz,DE,54.4,10.13,66.2,68,20,13.87,few clouds
440,Marsa Matruh,EG,31.35,27.25,82.4,65,20,9.17,few clouds
441,Miranda,CO,3.25,-76.23,86.0,55,40,4.7,scattered clouds
442,La Rioja,ES,42.25,-2.5,78.8,36,72,5.82,broken clouds
443,General Pico,AR,-35.66,-63.76,66.79,29,0,20.51,clear sky
444,Pisco,PE,-13.7,-76.22,64.4,72,90,9.17,overcast clouds
445,Cabedelo,BR,-6.98,-34.83,82.4,61,20,17.22,few clouds
446,Ishikari,JP,43.24,141.35,59.0,97,71,6.31,broken clouds
447,Mayo,US,38.89,-76.51,88.0,78,1,9.17,clear sky
448,Dudinka,RU,69.41,86.18,59.0,82,100,11.18,light rain
449,Raduzhnyy,RU,62.1,77.47,50.47,92,30,2.84,scattered clouds
450,Padampur,IN,29.68,73.62,90.91,56,4,15.39,clear sky
451,Chkalovskoye,RU,44.84,133.04,64.33,94,82,5.08,broken clouds
452,Husavik,IS,66.04,-17.34,51.8,71,97,6.93,overcast clouds
453,Paita,PE,-5.09,-81.11,69.93,59,30,15.12,scattered clouds
454,Rio Verde De Mato Grosso,BR,-18.92,-54.84,91.78,25,18,3.22,few clouds
455,Mkushi,ZM,-13.62,29.39,61.88,54,60,7.23,broken clouds
456,Buala,SB,-8.14,159.59,79.32,85,100,8.21,moderate rain
457,Miracema Do Tocantins,BR,-9.56,-48.4,99.14,21,50,4.99,scattered clouds
458,Breyten,ZA,-26.3,29.99,50.77,40,0,2.89,clear sky
459,Filingue,NE,14.35,3.32,92.17,42,96,11.54,overcast clouds
460,Darhan,MN,49.49,105.92,54.84,84,75,1.43,broken clouds
461,Narok,KE,-1.08,35.86,61.12,66,28,7.09,scattered clouds
462,Mulki,IN,13.1,74.8,77.0,94,75,3.36,mist
463,Kjollefjord,NO,70.95,27.35,57.2,82,75,10.29,broken clouds
464,Freeport,US,40.66,-73.58,84.99,74,1,10.29,clear sky
465,Rio Gallegos,AR,-51.62,-69.22,42.8,33,20,21.92,few clouds
466,Solnechnyy,RU,50.72,136.63,57.25,91,97,1.32,overcast clouds
467,Atbasar,KZ,51.8,68.33,56.55,77,14,5.19,few clouds
468,San Juan De Uraba,CO,8.76,-76.53,82.29,83,78,5.95,moderate rain
469,Dubbo,AU,-32.25,148.62,35.6,93,40,8.05,scattered clouds
470,Abatskoye,RU,56.29,70.46,51.84,92,68,6.2,broken clouds
471,Altay,CN,47.87,88.12,62.06,37,86,5.7,overcast clouds
472,Shasta Lake,US,40.68,-122.37,86.0,39,90,4.18,haze
473,Voh,NC,-20.97,164.7,67.68,83,41,3.83,scattered clouds
474,Payakumbuh,ID,-0.22,100.63,70.54,87,95,2.13,overcast clouds
475,Haines Junction,CA,60.75,-137.51,55.06,68,92,2.84,overcast clouds
476,Ozinki,RU,51.18,49.68,62.65,58,43,7.4,scattered clouds
477,Tiarei,PF,-17.53,-149.33,71.6,78,20,2.24,few clouds
478,Conceicao Da Barra,BR,-18.59,-39.73,67.24,80,100,9.82,light rain
479,Andenes,NO,69.31,16.12,57.2,93,90,9.17,light intensity drizzle
480,Goure,NE,13.98,10.27,90.46,39,95,7.16,overcast clouds
481,Bulgan,MN,48.81,103.53,48.94,84,2,3.67,clear sky
482,Lasa,IT,46.62,10.7,66.0,63,40,4.7,scattered clouds
483,Egvekinot,RU,66.32,-179.17,46.44,96,97,3.33,light rain
484,Turbat,PK,26.0,63.04,85.87,68,62,10.04,broken clouds
485,Poronaysk,RU,49.22,143.12,56.3,92,13,2.84,few clouds
486,Inverell,AU,-29.78,151.12,36.0,90,30,6.51,scattered clouds
487,Leninskoye,RU,47.94,132.62,61.45,94,97,4.21,overcast clouds
488,Sarangani,PH,5.4,125.46,83.23,76,87,6.87,light rain
489,Huanren,CN,41.26,125.37,63.43,90,100,4.05,overcast clouds
490,Bukachacha,RU,52.98,116.92,52.72,91,100,5.35,overcast clouds
491,Burgeo,CA,47.62,-57.62,65.35,67,7,16.06,clear sky
492,Vila Franca Do Campo,PT,37.72,-25.43,77.0,78,20,13.87,few clouds
493,Maraa,BR,-1.83,-65.37,95.47,33,0,1.83,clear sky
494,Tagbac,PH,7.09,125.16,78.8,88,40,3.36,scattered clouds
495,Jonava,LT,55.08,24.28,71.6,64,75,1.12,thunderstorm
496,Bjorkelangen,NO,59.88,11.57,66.0,85,20,6.44,few clouds
497,Tarko-Sale,RU,64.92,77.78,53.01,92,15,8.75,few clouds
498,Ordynskoye,RU,54.37,81.9,54.1,90,20,6.2,few clouds
499,Kaoma,ZM,-14.78,24.8,66.34,29,8,6.58,clear sky
500,Gunjur,GM,13.2,-16.73,84.2,79,75,6.93,broken clouds
501,Matay,EG,28.42,30.78,89.56,21,0,9.69,clear sky
502,Bilibino,RU,68.05,166.44,38.53,91,100,2.95,overcast clouds
503,Shangqiu,CN,34.45,115.65,76.19,95,36,7.67,light rain
504,Bang Sai,TH,14.21,100.5,82.4,78,20,6.93,few clouds
505,Serra Branca,BR,-6.53,-38.27,91.62,20,19,7.14,few clouds
506,Vao,NC,-22.67,167.48,69.94,80,100,10.63,overcast clouds
507,Coquimbo,CL,-29.95,-71.34,55.4,66,90,18.34,overcast clouds
508,Lamas,PE,-6.42,-76.53,78.8,61,75,3.36,broken clouds
509,Noumea,NC,-22.28,166.46,73.0,94,90,1.12,overcast clouds
510,Amga,RU,60.9,131.96,40.48,71,55,1.61,broken clouds
511,Corrales,US,35.24,-106.61,89.01,34,38,1.01,scattered clouds
512,Kisiwani,TZ,-4.13,37.95,69.66,71,92,7.31,overcast clouds
513,Kawalu,ID,-7.38,108.21,71.6,90,84,1.07,broken clouds
514,Wyndham,US,37.7,-77.61,91.0,58,1,5.82,clear sky
515,Marang,MY,5.21,103.21,80.6,88,20,2.24,few clouds
516,Jumla,NP,29.27,82.18,62.78,70,79,0.6,broken clouds
517,Ilulissat,GL,69.22,-51.1,46.4,52,2,3.36,clear sky
518,Myskhako,RU,44.67,37.74,73.0,56,0,8.95,clear sky
519,Kedrovyy,RU,56.17,91.82,55.4,93,40,4.47,light intensity shower rain
520,Wukari,NG,7.85,9.78,73.49,94,100,2.39,moderate rain
521,Poselki,RU,53.13,46.5,55.04,81,14,3.24,few clouds
522,Camacha,PT,33.08,-16.33,77.0,69,20,12.75,few clouds
523,Cayenne,GF,4.93,-52.33,75.2,83,4,10.29,light rain
524,Yumen,CN,40.28,97.2,69.15,24,0,6.91,clear sky
525,Half Moon Bay,US,37.46,-122.43,73.99,68,75,9.17,smoke
526,Parana,AR,-31.73,-60.52,72.0,28,0,4.0,clear sky
527,Vozhega,RU,60.47,40.22,58.98,93,100,5.35,overcast clouds
528,Rudnyy,KZ,52.96,63.12,53.6,81,4,8.95,clear sky
529,Dzhebariki-Khaya,RU,62.22,135.8,40.87,66,100,1.39,overcast clouds
530,Vanimo,PG,-2.67,141.3,77.52,81,96,4.21,moderate rain
531,Surt,LY,31.21,16.59,80.73,73,0,10.09,clear sky
532,Foz Do Iguacu,BR,-25.55,-54.59,75.2,33,0,14.99,clear sky
533,Oneonta,US,42.45,-75.06,84.0,60,9,3.0,light rain
534,Ardabil,IR,38.25,48.29,50.0,100,75,16.11,light intensity drizzle
535,Lesosibirsk,RU,58.24,92.48,52.95,85,85,3.67,overcast clouds
536,Brae,GB,60.4,-1.35,51.8,71,75,13.87,broken clouds
537,Sao Joao Da Barra,BR,-21.64,-41.05,75.2,50,75,11.41,broken clouds
538,Limuru,KE,-1.1,36.65,68.0,60,75,6.93,broken clouds
539,Alexandria,EG,31.22,29.96,86.0,58,0,9.17,clear sky
540,Kautokeino,NO,69.01,23.04,57.47,81,100,6.04,light rain
541,Salalah,OM,17.02,54.09,77.0,100,90,3.36,light intensity drizzle
542,San Quintin,MX,30.48,-115.95,78.62,62,0,7.87,clear sky
543,Opuwo,NA,-18.06,13.84,66.99,28,5,4.54,clear sky
544,Bemidji,US,47.47,-94.88,81.0,65,1,3.0,clear sky
545,Isangel,VU,-19.55,169.27,74.59,87,5,4.07,clear sky
546,Kholm,RU,59.27,32.85,61.36,95,97,7.27,overcast clouds
547,Geraldton,AU,-28.77,114.6,50.0,87,75,6.2,broken clouds
548,Krapivinskiy,RU,55.0,86.81,55.4,87,82,8.95,broken clouds
549,Victor Harbor,AU,-35.57,138.62,39.99,92,72,3.27,light rain
550,Rantepao,ID,-2.97,119.9,64.53,84,18,1.81,few clouds
551,Sungaipenuh,ID,-2.08,101.38,65.77,92,92,3.87,overcast clouds
552,Port Moresby,PG,-9.44,147.18,73.4,83,20,23.04,few clouds
553,Tazovskiy,RU,67.47,78.7,53.94,89,100,10.09,light rain
554,Ko Samui,TH,9.54,99.94,83.82,71,15,6.22,few clouds
555,Taoudenni,ML,22.68,-3.98,112.89,6,50,12.55,scattered clouds
556,Waipawa,NZ,-41.41,175.52,52.0,93,98,16.11,light rain
557,Mocuba,MZ,-16.84,36.99,66.2,77,39,4.25,scattered clouds
558,Peruibe,BR,-24.32,-47.0,67.03,67,57,6.53,light rain
559,Dunedin,NZ,-45.87,170.5,48.99,96,100,13.73,light rain
560,Skerries,IE,53.58,-6.11,63.0,67,75,13.87,broken clouds
561,Nalut,LY,30.33,10.85,92.75,16,0,16.78,clear sky
562,Saint-Pierre,RE,-21.34,55.48,68.0,72,0,4.7,clear sky
563,Lao Cai,VN,22.48,103.95,76.8,83,34,1.07,scattered clouds
564,Hailar,CN,49.2,119.7,58.01,92,98,5.57,overcast clouds
565,Tabuk,PH,17.42,121.44,74.59,82,99,3.13,overcast clouds
566,Anloga,GH,5.79,0.9,82.4,69,20,13.87,few clouds
567,General Teran,MX,25.27,-99.68,91.9,39,2,6.29,clear sky
568,Caxito,AO,-8.58,13.66,73.4,78,75,6.93,broken clouds
569,Champerico,GT,14.3,-91.92,82.4,78,75,4.7,broken clouds
570,Talcahuano,CL,-36.72,-73.12,55.4,76,90,25.28,overcast clouds
571,Parnaiba,BR,-2.9,-41.78,84.97,60,19,14.05,few clouds
572,Oropoli,HN,13.82,-86.82,82.4,58,75,2.93,broken clouds
573,Nova Soure,BR,-11.23,-38.48,79.95,63,83,15.23,light rain
574,Muisne,EC,0.6,-80.03,82.4,74,75,3.36,broken clouds
575,Eyl,SO,7.98,49.82,77.47,69,47,26.62,scattered clouds
576,Samarai,PG,-10.62,150.67,75.34,76,100,14.79,overcast clouds
577,Mosquera,CO,4.71,-74.23,66.2,52,75,5.82,broken clouds
578,Aflao,TG,6.12,1.19,82.4,69,20,13.87,few clouds
579,Paamiut,GL,61.99,-49.67,42.66,88,5,3.78,clear sky
580,Nador,MA,35.17,-2.93,84.2,74,40,5.82,scattered clouds
581,Decatur,US,39.84,-88.95,87.01,62,40,9.28,scattered clouds
582,Ndele,CF,8.41,20.65,72.37,94,96,4.47,moderate rain
583,Hervey Bay,AU,-25.3,152.85,51.8,40,0,8.05,clear sky
584,Chitral,PK,35.85,71.79,77.61,54,2,3.18,clear sky
585,Knezica,BA,45.1,16.68,71.6,83,40,5.82,scattered clouds
586,Pocatello,US,42.87,-112.45,79.0,35,1,4.7,haze
587,Flinders,AU,-34.58,150.86,51.01,60,0,11.01,clear sky
588,Salekhard,RU,66.53,66.6,53.01,81,63,10.76,broken clouds
589,Cochrane,CA,51.18,-114.47,62.01,66,90,5.82,overcast clouds
590,Aykhal,RU,66.0,111.5,48.2,66,0,6.71,clear sky
591,Hailey,US,43.52,-114.32,66.2,37,5,9.17,smoke
592,Nha Trang,VN,12.25,109.18,82.4,88,20,3.36,few clouds
593,Los Algarrobos,PA,8.5,-82.43,86.0,70,40,5.82,scattered clouds
594,Ribas Do Rio Pardo,BR,-20.44,-53.76,82.8,32,30,9.69,scattered clouds
595,Zheshart,RU,62.07,49.57,58.68,92,70,3.65,broken clouds
596,Constantine,DZ,36.37,6.61,86.0,42,20,10.29,few clouds
597,Mangan,IN,27.52,88.53,75.16,57,56,0.4,broken clouds
598,Progreso,MX,21.28,-89.67,95.0,59,75,9.04,broken clouds
599,Bathurst,AU,-33.42,149.58,37.99,99,94,3.0,overcast clouds
600,Price,US,39.6,-110.81,82.4,23,1,8.05,clear sky
601,Purranque,CL,-40.92,-73.17,48.2,93,90,10.29,overcast clouds
602,Asau,RO,46.43,26.4,70.0,80,8,2.13,light rain
603,Belaya Glina,RU,46.07,40.86,68.13,39,0,10.2,clear sky
604,Ulaanbaatar,MN,47.91,106.88,51.8,71,0,8.95,clear sky
605,Port Hardy,CA,50.7,-127.42,53.6,93,90,2.24,overcast clouds
606,Sambir,UA,49.52,23.2,66.0,93,40,6.71,scattered clouds
607,Stari Banovci,RS,44.99,20.29,80.6,57,52,13.87,broken clouds
608,Kumluca,TR,36.37,30.29,84.38,44,0,4.54,clear sky
609,Kisangani,CD,0.52,25.2,70.92,92,81,2.19,broken clouds
610,Itaquitinga,BR,-7.67,-35.1,82.4,61,20,11.41,few clouds
611,Fort Collins,US,40.59,-105.08,93.0,21,1,9.46,haze
612,Tual,ID,-5.67,132.75,78.28,81,73,18.39,broken clouds
613,Astoria,US,46.19,-123.83,64.99,77,1,4.7,clear sky
614,Mackenzie,CA,55.3,-123.17,55.4,66,1,9.17,clear sky
615,Sur,OM,22.57,59.53,80.31,76,96,13.49,overcast clouds
616,Vestmannaeyjar,IS,63.44,-20.27,55.4,66,88,9.17,overcast clouds
617,Belmonte,BR,-15.86,-38.88,69.8,88,75,9.17,light rain
618,Boddam,GB,57.47,-1.78,54.0,76,100,8.05,overcast clouds
619,Villa Guerrero,MX,18.87,-99.65,75.2,73,40,5.82,scattered clouds
620,Santa Fe,AR,-31.63,-60.7,72.0,29,0,8.99,clear sky
621,Uyuni,BO,-20.46,-66.83,53.08,37,0,22.48,clear sky
622,Buraydah,SA,26.33,43.98,100.4,22,0,2.24,clear sky
623,Oranjemund,NA,-28.55,16.43,55.2,87,0,8.19,clear sky
624,San Rafael,AR,-34.62,-68.33,68.36,21,0,6.82,clear sky
625,Khaga,IN,25.78,81.12,81.03,83,35,5.88,light rain
626,Nyurba,RU,63.28,118.33,40.19,81,0,3.67,clear sky
627,Bahawalpur,PK,29.4,71.68,96.46,38,29,10.69,scattered clouds
628,Kangaba,ML,11.93,-8.42,82.58,73,88,2.08,overcast clouds
629,Marquette,US,46.53,-87.63,75.99,79,17,3.0,few clouds
630,Duldurga,RU,50.68,113.59,53.55,87,88,3.38,overcast clouds
631,San Antero,CO,9.37,-75.76,84.04,73,55,3.96,broken clouds
632,Teacapan,MX,22.55,-105.75,89.47,64,13,8.48,few clouds
633,Luyang,CN,27.62,110.1,76.24,82,0,3.98,clear sky
634,Te Anau,NZ,-45.42,167.72,39.18,89,94,0.47,overcast clouds
635,Kolaras,IN,25.23,77.6,75.47,91,98,13.71,overcast clouds
636,Nizhniy Odes,RU,63.64,54.86,53.58,85,35,2.8,scattered clouds
637,Rivne,UA,50.62,26.23,66.99,98,100,6.17,moderate rain
638,Gornopravdinsk,RU,60.05,69.9,50.97,96,79,6.73,broken clouds
639,Iquitos,PE,-3.75,-73.25,71.6,73,90,5.82,overcast clouds
640,Chicama,PE,-7.84,-79.15,74.84,46,32,10.69,scattered clouds
641,Yakima,US,46.47,-120.67,75.99,43,1,4.7,clear sky
642,Pokhara,NP,28.23,83.98,71.55,79,79,2.37,broken clouds
643,Ibra,OM,22.69,58.53,83.66,61,100,7.38,overcast clouds
644,Seljord,NO,59.49,8.63,58.53,57,3,6.42,clear sky
645,Faya,SA,18.39,42.45,73.4,88,84,6.93,broken clouds
646,Rovenki,UA,48.08,39.38,63.73,47,0,6.02,clear sky
647,Bonthe,SL,7.53,-12.51,79.3,82,98,10.83,light rain
648,Las Palmas,ES,28.42,-14.01,89.6,46,0,18.34,clear sky
649,Lagos,NG,6.58,3.75,84.2,66,20,10.29,few clouds
650,Kambove,CD,-10.88,26.6,64.42,46,46,2.75,scattered clouds
651,Ternate,ID,0.8,127.4,79.77,83,28,3.47,light rain
652,Panzhihua,CN,26.59,101.71,72.57,77,61,1.83,moderate rain
653,Nemuro,JP,43.32,145.57,62.58,98,40,3.0,scattered clouds
654,Pozo Colorado,PY,-23.49,-58.8,66.94,58,98,6.33,overcast clouds
655,Quatre Cocos,MU,-20.21,57.76,72.0,73,20,17.22,few clouds
656,Modasa,IN,23.47,73.3,76.57,94,100,9.75,overcast clouds
657,High Level,CA,58.52,-117.14,57.2,93,90,5.82,overcast clouds
658,Upington,ZA,-28.45,21.26,69.8,29,0,4.7,clear sky
659,Choma,ZM,-16.81,26.95,58.1,47,46,6.08,scattered clouds
660,Riyadh,SA,24.69,46.72,105.8,12,63,5.82,broken clouds
661,Manggar,ID,-2.88,108.27,80.58,81,83,10.51,broken clouds
662,Henties Bay,NA,-22.12,14.28,63.0,77,0,8.37,clear sky
663,Alekseyevsk,RU,57.84,108.35,57.65,69,92,4.07,overcast clouds
664,Cassilandia,BR,-19.11,-51.73,84.15,34,19,7.34,few clouds
665,Dwarka,IN,22.24,68.97,82.78,82,100,20.33,moderate rain
666,Crowley,US,30.21,-92.37,91.99,68,0,10.38,light rain
667,Berlevag,NO,70.86,29.09,66.2,63,90,14.99,moderate rain
668,Russell,US,32.35,-85.2,86.0,58,75,5.82,broken clouds
669,Kaeo,NZ,-35.1,173.78,54.0,3,17,8.01,few clouds
670,Kutum,SD,14.2,24.67,80.69,59,60,1.28,broken clouds
671,Abha,SA,18.22,42.51,73.4,88,92,6.93,overcast clouds
672,Los Llanos De Aridane,ES,28.66,-17.92,80.01,73,20,18.34,few clouds
673,Mahibadhoo,MV,3.78,72.97,82.74,69,80,0.89,moderate rain
674,Novoagansk,RU,61.94,76.66,49.06,92,59,2.66,broken clouds
675,Eydhafushi,MV,5.1,73.07,84.45,65,99,3.24,overcast clouds
676,Grants,US,35.15,-107.85,84.2,20,1,8.05,clear sky
677,Machali,CL,-34.18,-70.67,57.2,58,40,2.24,haze
678,Alice,US,27.75,-98.07,91.4,55,75,10.29,broken clouds
679,Dondo,MZ,-19.61,34.74,64.33,78,6,5.46,clear sky
680,Irbeyskoye,RU,55.64,95.45,54.19,79,49,4.18,scattered clouds
681,Shu,KZ,43.6,73.76,82.0,65,55,4.0,broken clouds
682,Ayan,RU,56.45,138.17,54.28,64,21,6.38,few clouds
683,Baguanos,CU,20.75,-76.03,86.0,74,75,16.11,shower rain
684,Tigil,RU,57.8,158.67,39.87,94,76,6.49,broken clouds
685,Penzance,GB,50.12,-5.54,64.99,77,83,13.87,broken clouds
686,Ixtapa,MX,20.7,-105.2,88.0,70,5,4.7,clear sky
687,Teknaf,BD,20.86,92.31,79.02,90,100,8.75,moderate rain
688,Sunbury,AU,-37.58,144.73,41.0,93,20,10.29,few clouds
689,Pandan,PH,14.05,124.17,80.49,82,100,4.9,light rain
690,Kichera,RU,55.94,110.1,55.99,85,99,1.97,moderate rain
691,Lorengau,PG,-2.02,147.27,76.86,87,100,6.62,moderate rain
692,Portland,US,45.52,-122.68,69.01,63,1,4.7,clear sky
693,Golden,US,39.76,-105.22,84.0,20,5,4.7,smoke
694,Beachwood,US,41.46,-81.51,86.0,51,40,9.17,scattered clouds
695,Ushtobe,KZ,45.25,77.98,72.93,23,72,8.81,broken clouds
696,Iralaya,HN,15.0,-83.23,87.8,74,40,6.93,scattered clouds
697,Quzhou,CN,28.96,118.87,78.44,73,2,1.41,clear sky
698,Biak,ID,-0.91,122.88,74.32,65,1,5.88,clear sky
699,Kurilsk,RU,45.23,147.88,56.64,87,87,0.54,overcast clouds
700,Saint-Georges,GD,12.06,-61.75,86.0,79,40,8.05,scattered clouds
701,Partizanske,SK,48.63,18.38,70.0,100,36,4.54,scattered clouds
702,Dangriga,BZ,16.97,-88.23,91.99,70,20,5.59,few clouds
703,Quelimane,MZ,-17.88,36.89,71.6,73,47,2.51,scattered clouds
704,Tondano,ID,1.3,124.91,75.2,83,20,1.12,few clouds
705,San Lawrenz,MT,36.06,14.2,84.2,79,20,12.75,few clouds
706,Placido De Castro,BR,-10.34,-67.19,95.67,25,0,1.03,clear sky
707,Machachi,EC,-0.5,-78.57,71.6,40,20,9.17,few clouds
708,Jiaocheng,CN,24.68,116.14,77.56,87,83,1.12,moderate rain
709,Xiongzhou,CN,25.12,114.3,77.95,82,5,2.84,clear sky
